{
  "data": [
    {
      "id": 1,
      "Year": 2013,
      "CityType": "Phoenix - HQ",
      "Icon": "#icon-1899-0F9D58-nodesc",
      "Description": "Headquarters",
      "Longitude": "-112.1487134",
      "Latitude": "33.3596989"
    },
    {
      "id": 2,
      "Year": 2013,
      "CityType": "Atlanta - Hub",
      "Icon": "#icon-1899-0288D1",
      "Description": "Market #1 - launched 1/29/13",
      "Longitude": "-84.3879824",
      "Latitude": "33.7489954"
    },
    {
      "id": 3,
      "Year": 2013,
      "CityType": "Winder - IC",
      "Icon": "#icon-1899-FBC02D",
      "Description": "IC #1 - launched 2/1/13",
      "Longitude": "-83.7201709",
      "Latitude": "33.9926097"
    },
    {
      "id": 4,
      "Year": 2014,
      "CityType": null,
      "Icon": null,
      "Description": null,
      "Longitude": null,
      "Latitude": null
    },
    {
      "id": 5,
      "Year": 2015,
      "CityType": "Birmingham - Hub",
      "Icon": "#icon-1899-0288D1",
      "Description": "Market #4 - launched 3/1/15",
      "Longitude": "-86.80249",
      "Latitude": "33.5206608"
    },
    {
      "id": 6,
      "Year": 2015,
      "CityType": "Blue Mound - IC",
      "Icon": "#icon-1899-FBC02D",
      "Description": "IC #2 - launched 5/1/15<br>Market #5 - launched 5/1/15",
      "Longitude": "-97.3389061",
      "Latitude": "32.8565166"
    },
    {
      "id": 7,
      "Year": 2015,
      "CityType": "Delanco - IC",
      "Icon": "#icon-1899-FBC02D",
      "Description": "IC #2 - launched 12/1/15",
      "Longitude": "-74.9535016",
      "Latitude": "40.0506669"
    },
    {
      "id": 8,
      "Year": 2015,
      "CityType": "Nashville - VM",
      "Icon": "#icon-1899-9C27B0",
      "Description": "Market #2 - launched ???<br>VM #1 - launched 11/12/15",
      "Longitude": "-86.7816016",
      "Latitude": "36.1626638"
    },
    {
      "id": 9,
      "Year": 2016,
      "CityType": "Richmond - Hub",
      "Icon": "#icon-1899-0288D1",
      "Description": "Market #14 - launched 6/29/16",
      "Longitude": "-77.4360481",
      "Latitude": "37.5407246"
    },
    {
      "id": 10,
      "Year": 2016,
      "CityType": "Columbus - Hub",
      "Icon": "#icon-1899-0288D1",
      "Description": "Market #16 - launched 9/26/16",
      "Longitude": "-82.9987942",
      "Latitude": "39.9611755"
    },
    {
      "id": 11,
      "Year": 2016,
      "CityType": "Cincinnati - Hub",
      "Icon": "#icon-1899-0288D1",
      "Description": "Market #17 - launched 10/12/16",
      "Longitude": "-84.5120196",
      "Latitude": "39.1031182"
    },
    {
      "id": 12,
      "Year": 2016,
      "CityType": "Houston - VM",
      "Icon": "#icon-1899-9C27B0",
      "Description": "Market #6 - launched 10/12/15<br>VM #2 - launched 12/14/16",
      "Longitude": "-95.3698028",
      "Latitude": "29.7604267"
    },
    {
      "id": 13,
      "Year": 2017,
      "CityType": "Austin - VM",
      "Icon": "#icon-1899-9C27B0",
      "Description": "Market #7 - launched 10/19/15<br>VM #3 - launched 2/7/17",
      "Longitude": "-97.7430608",
      "Latitude": "30.267153"
    },
    {
      "id": 14,
      "Year": 2017,
      "CityType": "San Antonio - VM",
      "Icon": "#icon-1899-9C27B0",
      "Description": "Market #8 - launched 10/26/15<br>VM #4 - launched 3/15/17",
      "Longitude": "-98.4936282",
      "Latitude": "29.4241219"
    },
    {
      "id": 15,
      "Year": 2017,
      "CityType": "St. Louis - Hub",
      "Icon": "#icon-1899-0288D1",
      "Description": "Market #24 - launched 4/12/17",
      "Longitude": "-90.1994042",
      "Latitude": "38.6270025"
    },
    {
      "id": 16,
      "Year": 2017,
      "CityType": "Dallas/Frisco - VM",
      "Icon": "#icon-1899-9C27B0",
      "Description": "Market #5 - launched 5/1/15<br>VM #5 - launched 4/20/17",
      "Longitude": "-96.8236116",
      "Latitude": "33.1506744"
    },
    {
      "id": 17,
      "Year": 2017,
      "CityType": "Greenville - Hub",
      "Icon": "#icon-1899-0288D1",
      "Description": "Market #26 - launched 5/24/17",
      "Longitude": "-82.3940104",
      "Latitude": "34.8526176"
    },
    {
      "id": 18,
      "Year": 2017,
      "CityType": "Columbia - Hub",
      "Icon": "#icon-1899-0288D1",
      "Description": "Market #27 - launched 5/24/17",
      "Longitude": "-81.0348144",
      "Latitude": "34.0007104"
    },
    {
      "id": 19,
      "Year": 2017,
      "CityType": "Macon - Hub",
      "Icon": "#icon-1899-0288D1",
      "Description": "Market #28 - launched 6/7/17",
      "Longitude": "-83.6324022",
      "Latitude": "32.8406946"
    },
    {
      "id": 20,
      "Year": 2017,
      "CityType": "Augusta - Hub",
      "Icon": "#icon-1899-0288D1",
      "Description": "Market #29 - launched 6/7/17",
      "Longitude": "-82.0105148",
      "Latitude": "33.4734978"
    },
    {
      "id": 21,
      "Year": 2017,
      "CityType": "Knoxville - Hub",
      "Icon": "#icon-1899-0288D1",
      "Description": "Market #34 - launched 8/9/17",
      "Longitude": "-83.9207392",
      "Latitude": "35.9606384"
    },
    {
      "id": 22,
      "Year": 2017,
      "CityType": "Chattanooga - Hub",
      "Icon": "#icon-1899-0288D1",
      "Description": "Market #35 - launched 8/16/17",
      "Longitude": "-85.3096801",
      "Latitude": "35.0456297"
    },
    {
      "id": 23,
      "Year": 2017,
      "CityType": "Baltimore - Hub",
      "Icon": "#icon-1899-0288D1",
      "Description": "Market #36 - launched 8/23/17",
      "Longitude": "-76.6121893",
      "Latitude": "39.2903848"
    },
    {
      "id": 24,
      "Year": 2017,
      "CityType": "Albuquerque - Hub",
      "Icon": "#icon-1899-0288D1",
      "Description": "Market #37 - launched 8/30/17",
      "Longitude": "-106.6055534",
      "Latitude": "35.0853336"
    },
    {
      "id": 25,
      "Year": 2017,
      "CityType": "Raleigh - VM",
      "Icon": "#icon-1899-9C27B0",
      "Description": "Market #9 - launched 11/2/15<br>VM #6 - launched 8/30/17",
      "Longitude": "-78.6381787",
      "Latitude": "35.7795897"
    },
    {
      "id": 26,
      "Year": 2017,
      "CityType": "Las Vegas",
      "Icon": "#icon-1899-0288D1",
      "Description": "Market #39 - launched 9/13/17",
      "Longitude": "-115.1398296",
      "Latitude": "36.1699412"
    },
    {
      "id": 27,
      "Year": 2017,
      "CityType": "Tolleson IC",
      "Icon": "#icon-1899-FBC02D",
      "Description": "IC #4<br>In Tolleson, AZ<br>Launch date: 9/27/17",
      "Longitude": "-112.259321",
      "Latitude": "33.4500425"
    },
    {
      "id": 28,
      "Year": 2017,
      "CityType": "Jacksonville - VM",
      "Icon": "#icon-1899-9C27B0",
      "Description": "Market #11 - launched 3/28/16<br>VM #7 - launched 10/4/17",
      "Longitude": "-81.655651",
      "Latitude": "30.3321838"
    },
    {
      "id": 29,
      "Year": 2017,
      "CityType": "Bakersfield - Hub",
      "Icon": "#icon-1899-0288D1",
      "Description": "Market #40<br>Launched 11/15/17",
      "Longitude": "-119.0187125",
      "Latitude": "35.3732921"
    },
    {
      "id": 30,
      "Year": 2017,
      "CityType": "Tucson - Hub",
      "Icon": "#icon-1899-0288D1",
      "Description": "Market #41<br>Launched 12/6/17",
      "Longitude": "-110.926479",
      "Latitude": "32.2217429"
    },
    {
      "id": 31,
      "Year": 2017,
      "CityType": "Naples - Hub",
      "Icon": "#icon-1899-0288D1",
      "Description": "Market #42<br>Launched 12/13/17",
      "Longitude": "-81.7948103",
      "Latitude": "26.1420358"
    },
    {
      "id": 32,
      "Year": 2017,
      "CityType": "Newark - Hub",
      "Icon": "#icon-1899-0288D1",
      "Description": "Market #43<br>Launched 12/20/17",
      "Longitude": "-74.1723667",
      "Latitude": "40.735657"
    },
    {
      "id": 33,
      "Year": 2017,
      "CityType": "Corpus Christi - Hub",
      "Icon": "#icon-1899-0288D1",
      "Description": "Market #44<br>Launched 12/28/17",
      "Longitude": "-97.396381",
      "Latitude": "27.8005828"
    },
    {
      "id": 34,
      "Year": 2018,
      "CityType": "Winston-Salem - Hub",
      "Icon": "#icon-1899-0288D1",
      "Description": "Market #47<br>Launched 1/31/18",
      "Longitude": "-80.244216",
      "Latitude": "36.0998596"
    },
    {
      "id": 35,
      "Year": 2018,
      "CityType": "Charleston - Hub",
      "Icon": "#icon-1899-0288D1",
      "Description": "Market #48<br>Launched 2/7/18",
      "Longitude": "-79.9310512",
      "Latitude": "32.7764749"
    },
    {
      "id": 36,
      "Year": 2018,
      "CityType": "Huntsville - Hub",
      "Icon": "#icon-1899-0288D1",
      "Description": "Market #49<br>Launched on 2/21/18",
      "Longitude": "-86.5861037",
      "Latitude": "34.7303688"
    },
    {
      "id": 37,
      "Year": 2018,
      "CityType": "Montgomery - Hub",
      "Icon": "#icon-1899-0288D1",
      "Description": "Market #50<br>Launched on 2/21/18",
      "Longitude": "-86.2999689",
      "Latitude": "32.3668052"
    },
    {
      "id": 38,
      "Year": 2018,
      "CityType": "Hartford - Hub",
      "Icon": "#icon-1899-0288D1",
      "Description": "Market #51<br>Launched 2/28/18",
      "Longitude": "-72.6850932",
      "Latitude": "41.7637111"
    },
    {
      "id": 39,
      "Year": 2018,
      "CityType": "Springfield - Hub",
      "Icon": "#icon-1899-0288D1",
      "Description": "Market #52<br>Launched 2/28/18",
      "Longitude": "-72.589811",
      "Latitude": "42.1014831"
    },
    {
      "id": 40,
      "Year": 2018,
      "CityType": "New Haven - Hub",
      "Icon": "#icon-1899-0288D1",
      "Description": "Market #53<br>Launched 2/28/18",
      "Longitude": "-72.9278835",
      "Latitude": "41.308274"
    },
    {
      "id": 41,
      "Year": 2018,
      "CityType": "Bridgeport - Hub",
      "Icon": "#icon-1899-0288D1",
      "Description": "Market #54<br>Launched 2/28/18",
      "Longitude": "-73.1951767",
      "Latitude": "41.1865478"
    },
    {
      "id": 42,
      "Year": 2018,
      "CityType": "San Diego - Hub",
      "Icon": "#icon-1899-0288D1",
      "Description": "Market #55<br>Launched 3/7/18",
      "Longitude": "-117.1610838",
      "Latitude": "32.715738"
    },
    {
      "id": 43,
      "Year": 2018,
      "CityType": "Denver - Hub",
      "Icon": "#icon-1899-0288D1",
      "Description": "Market #56<br>Launched 3/27/18",
      "Longitude": "-104.990251",
      "Latitude": "39.7392358"
    },
    {
      "id": 44,
      "Year": 2018,
      "CityType": "Tampa - VM",
      "Icon": "#icon-1899-9C27B0",
      "Description": "Market #12 - launched 4/4/16<br>VM #8 - launched 3/29/18",
      "Longitude": "-82.4571776",
      "Latitude": "27.950575"
    },
    {
      "id": 45,
      "Year": 2018,
      "CityType": "Lexington - Hub",
      "Icon": "#icon-1899-0288D1",
      "Description": "Market #57<br>Launched 4/4/18",
      "Longitude": "-84.5037164",
      "Latitude": "38.0405837"
    },
    {
      "id": 46,
      "Year": 2018,
      "CityType": "Boston - Hub",
      "Icon": "#icon-1899-0288D1",
      "Description": "Market #58<br>Launched 4/11/18",
      "Longitude": "-71.0588801",
      "Latitude": "42.3600825"
    },
    {
      "id": 47,
      "Year": 2018,
      "CityType": "Providence - Hub",
      "Icon": "#icon-1899-0288D1",
      "Description": "Market #59<br>Launched 4/11/18",
      "Longitude": "-71.4128343",
      "Latitude": "41.8239891"
    },
    {
      "id": 48,
      "Year": 2018,
      "CityType": "Manchester - Hub",
      "Icon": "#icon-1899-0288D1",
      "Description": "Market #60 <br>Launched 4/11/18",
      "Longitude": "-71.4547891",
      "Latitude": "42.9956397"
    },
    {
      "id": 49,
      "Year": 2018,
      "CityType": "Worcester - Hub",
      "Icon": "#icon-1899-0288D1",
      "Description": "Market #61<br>Launched 4/11/18",
      "Longitude": "-71.8022934",
      "Latitude": "42.2625932"
    },
    {
      "id": 50,
      "Year": 2018,
      "CityType": "Allentown - Hub",
      "Icon": "#icon-1899-0288D1",
      "Description": "Market #62<br>Launched 4/25/18",
      "Longitude": "-75.4901833",
      "Latitude": "40.6084305"
    },
    {
      "id": 51,
      "Year": 2018,
      "CityType": "Charlotte - VM",
      "Icon": "#icon-1899-9C27B0",
      "Description": "Market #3 - launched 9/1/14<br>VM #9 - launched 5/4/18",
      "Longitude": "-80.8431267",
      "Latitude": "35.2270869"
    },
    {
      "id": 52,
      "Year": 2018,
      "CityType": "San Jose - Hub",
      "Icon": "#icon-1899-0288D1",
      "Description": "Market #63<br>Launched 5/16/18",
      "Longitude": "-121.8863286",
      "Latitude": "37.3382082"
    },
    {
      "id": 53,
      "Year": 2018,
      "CityType": "Washington DC - VM",
      "Icon": "#icon-1899-9C27B0",
      "Description": "Market #15 - launched 7/27/16<br>VM #10 - launched 6/5/18",
      "Longitude": "-77.0368707",
      "Latitude": "38.9071923"
    },
    {
      "id": 54,
      "Year": 2018,
      "CityType": "Orlando - VM",
      "Icon": "#icon-1899-9C27B0",
      "Description": "Market #10 - launched 3/7/16<br>VM #11 - launched 6/7/18",
      "Longitude": "-81.3792365",
      "Latitude": "28.5383355"
    },
    {
      "id": 55,
      "Year": 2018,
      "CityType": "Phoenix - VM",
      "Icon": "#icon-1899-9C27B0",
      "Description": "Market #33 - launched 8/2/17<br>VM #12 - launched 6/20/18",
      "Longitude": "-112.0740373",
      "Latitude": "33.4483771"
    },
    {
      "id": 56,
      "Year": 2018,
      "CityType": "New York - Hub",
      "Icon": "#icon-1899-0288D1",
      "Description": "Market #64 - Launched 6/27/18",
      "Longitude": "-74.0059728",
      "Latitude": "40.7127753"
    },
    {
      "id": 57,
      "Year": 2018,
      "CityType": "Long Island - Hub",
      "Icon": "#icon-1899-0288D1",
      "Description": "Market #65 - Launched 6/27/18",
      "Longitude": "-73.134961",
      "Latitude": "40.789142"
    },
    {
      "id": 58,
      "Year": 2018,
      "CityType": "Sacramento - Hub",
      "Icon": "#icon-1899-0288D1",
      "Description": "Market #66 - Launched 7/17/18",
      "Longitude": "-121.4943996",
      "Latitude": "38.5815719"
    },
    {
      "id": 59,
      "Year": 2018,
      "CityType": "Cleveland - VM",
      "Icon": "#icon-1899-9C27B0",
      "Description": "Market #21 - launched 12/7/16<br>VM #13 - launched 7/19/18",
      "Longitude": "-81.6943605",
      "Latitude": "41.49932"
    },
    {
      "id": 60,
      "Year": 2018,
      "CityType": "Akron - Hub",
      "Icon": "#icon-1899-0288D1",
      "Description": "Market #67 - launched 7/19/18",
      "Longitude": "-81.5190053",
      "Latitude": "41.0814447"
    },
    {
      "id": 61,
      "Year": 2018,
      "CityType": "Toledo - Hub",
      "Icon": "#icon-1899-0288D1",
      "Description": "Market #68 - launched 7/19/18",
      "Longitude": "-83.5378674",
      "Latitude": "41.6528052"
    },
    {
      "id": 62,
      "Year": 2018,
      "CityType": "Youngstown - Hub",
      "Icon": "#icon-1899-0288D1",
      "Description": "Market #69 - launched 7/19/18",
      "Longitude": "-80.6495194",
      "Latitude": "41.0997803"
    },
    {
      "id": 63,
      "Year": 2018,
      "CityType": "Canton - Hub",
      "Icon": "#icon-1899-0288D1",
      "Description": "Market #70 - launched 7/19/18",
      "Longitude": "-81.378447",
      "Latitude": "40.7989473"
    },
    {
      "id": 64,
      "Year": 2018,
      "CityType": "Harrisburg - Hub",
      "Icon": "#icon-1899-0288D1",
      "Description": "Market #71 - launched 8/8/18",
      "Longitude": "-76.8867008",
      "Latitude": "40.2731911"
    },
    {
      "id": 65,
      "Year": 2018,
      "CityType": "Lancaster - Hub",
      "Icon": "#icon-1899-0288D1",
      "Description": "Market #72 - 8/8/18",
      "Longitude": "-76.3055144",
      "Latitude": "40.0378755"
    },
    {
      "id": 66,
      "Year": 2018,
      "CityType": "York-Hanover - Hub",
      "Icon": "#icon-1899-0288D1",
      "Description": "Market #73 - launched 8/8/18",
      "Longitude": "-76.727745",
      "Latitude": "39.9625984"
    },
    {
      "id": 67,
      "Year": 2018,
      "CityType": "Grand Rapids - Hub",
      "Icon": "#icon-1899-0288D1",
      "Description": "Market #74 - launched 8/29/18",
      "Longitude": "-85.6680863",
      "Latitude": "42.9633599"
    },
    {
      "id": 68,
      "Year": 2018,
      "CityType": "Lansing - Hub",
      "Icon": "#icon-1899-0288D1",
      "Description": "Market #75 - launched 8/29/18",
      "Longitude": "-84.5555347",
      "Latitude": "42.732535"
    },
    {
      "id": 69,
      "Year": 2018,
      "CityType": "Flint - Hub",
      "Icon": "#icon-1899-0288D1",
      "Description": "Market #76 - launched 8/29/18",
      "Longitude": "-83.6874562",
      "Latitude": "43.0125274"
    },
    {
      "id": 70,
      "Year": 2018,
      "CityType": "Fort Wayne - Hub",
      "Icon": "#icon-1899-0288D1",
      "Description": "Market #77 - launched 8/29/18",
      "Longitude": "-85.1393513",
      "Latitude": "41.079273"
    },
    {
      "id": 71,
      "Year": 2018,
      "CityType": "Tulsa - Hub",
      "Icon": "#icon-1899-0288D1",
      "Description": "Market #78 - launched 9/12/18",
      "Longitude": "-95.992775",
      "Latitude": "36.1539816"
    },
    {
      "id": 72,
      "Year": 2018,
      "CityType": "Myrtle Beach - Hub",
      "Icon": "#icon-1899-0288D1",
      "Description": "Market #79 - launched 10/3/18",
      "Longitude": "-78.8866943",
      "Latitude": "33.6890603"
    },
    {
      "id": 73,
      "Year": 2018,
      "CityType": "Beaumont - Hub",
      "Icon": "#icon-1899-0288D1",
      "Description": "Market #80 - launched 10/9/18",
      "Longitude": "-94.1265562",
      "Latitude": "30.080174"
    },
    {
      "id": 74,
      "Year": 2018,
      "CityType": "Philadelphia - VM",
      "Icon": "#icon-1899-9C27B0",
      "Description": "Market #23 - launched 3/22/17<br>VM #14 - launched 10/11/18",
      "Longitude": "-75.1652215",
      "Latitude": "39.9525839"
    },
    {
      "id": 75,
      "Year": 2018,
      "CityType": "Fresno - Hub",
      "Icon": "#icon-1899-0288D1",
      "Description": "Market #81 - launched 11/7/18",
      "Longitude": "-119.7871247",
      "Latitude": "36.7377981"
    },
    {
      "id": 76,
      "Year": 2018,
      "CityType": "Scranton - Hub",
      "Icon": "#icon-1899-0288D1",
      "Description": "Market #82 - launched 11/7/18",
      "Longitude": "-75.6624122",
      "Latitude": "41.408969"
    },
    {
      "id": 77,
      "Year": 2018,
      "CityType": "Indianapolis - VM",
      "Icon": "#icon-1899-9C27B0",
      "Description": "Market #20 - launched 11/22/16<br>VM #15 -  launched 12/13/18",
      "Longitude": "-86.158068",
      "Latitude": "39.768403"
    },
    {
      "id": 78,
      "Year": 2018,
      "CityType": "San Francisco - Hub",
      "Icon": "#icon-1899-0288D1",
      "Description": "Market #83 - launched 12/11/18",
      "Longitude": "-122.4194155",
      "Latitude": "37.7749295"
    },
    {
      "id": 79,
      "Year": 2018,
      "CityType": "Indianapolis - IC",
      "Icon": "#icon-1899-FFD600",
      "Description": "IC #5<br>Launched 12/17/18 Media launched 3/26",
      "Longitude": "-86.158068",
      "Latitude": "39.768403"
    },
    {
      "id": 80,
      "Year": 2018,
      "CityType": "Milwaukee - Hub",
      "Icon": "#icon-1899-0288D1",
      "Description": "Market #84 - launched 12/19/18",
      "Longitude": "-87.9064736",
      "Latitude": "43.0389025"
    },
    {
      "id": 81,
      "Year": 2018,
      "CityType": "Madison - Hub",
      "Icon": "#icon-1899-0288D1",
      "Description": "Market #85 - launched 12/19/18",
      "Longitude": "-89.4012302",
      "Latitude": "43.0730517"
    },
    {
      "id": 82,
      "Year": 2019,
      "CityType": "Columbus - Hub",
      "Icon": "#icon-1899-0288D1",
      "Description": "Market #86<br>Launched 1/16/19",
      "Longitude": "-84.9877094",
      "Latitude": "32.4609764"
    },
    {
      "id": 83,
      "Year": 2019,
      "CityType": "Rochester - Hub",
      "Icon": "#icon-1899-0288D1",
      "Description": "Market #87<br>Launched 1/30/19",
      "Longitude": "-77.6088465",
      "Latitude": "43.1565779"
    },
    {
      "id": 84,
      "Year": 2019,
      "CityType": "Buffalo - Virtual",
      "Icon": "#icon-1899-0288D1",
      "Description": "Market #88<br>Launched 1/30/19",
      "Longitude": "-78.8783689",
      "Latitude": "42.8864468"
    },
    {
      "id": 85,
      "Year": 2019,
      "CityType": "Syracuse - Virtual",
      "Icon": "#icon-1899-0288D1",
      "Description": "Market #89<br>Launched 1/30/19",
      "Longitude": "-76.1474244",
      "Latitude": "43.0481221"
    },
    {
      "id": 86,
      "Year": 2019,
      "CityType": "Albany - Virtual",
      "Icon": "#icon-1899-0288D1",
      "Description": "Market #90<br>Launched 1/30/19",
      "Longitude": "-73.7562317",
      "Latitude": "42.6525793"
    },
    {
      "id": 87,
      "Year": 2019,
      "CityType": "Binghamton -Virtual",
      "Icon": "#icon-1899-0288D1",
      "Description": "Market #91<br>Launched 1/30/19",
      "Longitude": "-75.9179738",
      "Latitude": "42.0986867"
    },
    {
      "id": 88,
      "Year": 2019,
      "CityType": "Westchester - Westport - Hub",
      "Icon": "#icon-1899-0288D1",
      "Description": "Market #92<br>Launched 2/20/19",
      "Longitude": "-73.7948516",
      "Latitude": "41.1220194"
    },
    {
      "id": 89,
      "Year": 2019,
      "CityType": "Barnstable Town- Virtual",
      "Icon": "#icon-1899-0288D1",
      "Description": "Market #93<br>Launched 2/20/19",
      "Longitude": "-70.3002024",
      "Latitude": "41.7003208"
    },
    {
      "id": 90,
      "Year": 2019,
      "CityType": "Norwich - Virtual",
      "Icon": "#icon-1899-0288D1",
      "Description": "Market #94<br>Launched 2/20/19",
      "Longitude": "-72.0759105",
      "Latitude": "41.5242649"
    },
    {
      "id": 91,
      "Year": 2019,
      "CityType": "Atlantic City - Virtual",
      "Icon": "#icon-1899-0288D1",
      "Description": "Market #95<br>Launched 2/20/19",
      "Longitude": "-74.4229266",
      "Latitude": "39.3642834"
    },
    {
      "id": 92,
      "Year": 2019,
      "CityType": "Trenton - Virtual",
      "Icon": "#icon-1899-0288D1",
      "Description": "Market #96<br>Launched 2/20/19",
      "Longitude": "-74.759717",
      "Latitude": "40.2205824"
    },
    {
      "id": 93,
      "Year": 2019,
      "CityType": "Athens - Virtual",
      "Icon": "#icon-1899-0288D1",
      "Description": "Market #97<br>Launched 2/27/19",
      "Longitude": "-83.357567",
      "Latitude": "33.9519347"
    },
    {
      "id": 94,
      "Year": 2019,
      "CityType": "Tuscaloosa - Virtual",
      "Icon": "#icon-1899-0288D1",
      "Description": "Market #98<br>Launched 2/27/19",
      "Longitude": "-87.5691735",
      "Latitude": "33.2098407"
    },
    {
      "id": 95,
      "Year": 2019,
      "CityType": "Hilton Head Island - Virtual",
      "Icon": "#icon-1899-0288D1",
      "Description": "Market #99<br>Launched 2/27/19",
      "Longitude": "-80.752608",
      "Latitude": "32.216316"
    },
    {
      "id": 96,
      "Year": 2019,
      "CityType": "Savannah - Hub",
      "Icon": "#icon-1899-0288D1",
      "Description": "Market #100<br>Launched 2/27/19",
      "Longitude": "-81.091203",
      "Latitude": "32.0808989"
    },
    {
      "id": 97,
      "Year": 2019,
      "CityType": "Prescott - Virtual",
      "Icon": "#icon-1899-0288D1",
      "Description": "Market #101<br>Launched 3/5/19",
      "Longitude": "-112.4685025",
      "Latitude": "34.5400242"
    },
    {
      "id": 98,
      "Year": 2019,
      "CityType": "Dayton- Virtual",
      "Icon": "#icon-1899-0288D1",
      "Description": "Market #102<br>Launched 3/7/19",
      "Longitude": "-84.1916069",
      "Latitude": "39.7589478"
    },
    {
      "id": 99,
      "Year": 2019,
      "CityType": "College Station - Virtual",
      "Icon": "#icon-1899-0288D1",
      "Description": "Market #103<br>Launched 3/19/19",
      "Longitude": "-96.3344068",
      "Latitude": "30.627977"
    },
    {
      "id": 100,
      "Year": 2019,
      "CityType": "Killeen - Virtual",
      "Icon": "#icon-1899-0288D1",
      "Description": "Market #104<br>Launched 3/19/19",
      "Longitude": "-97.7277959",
      "Latitude": "31.1171194"
    },
    {
      "id": 101,
      "Year": 2019,
      "CityType": "Waco - Virtual",
      "Icon": "#icon-1899-0288D1",
      "Description": "Market #105<br>Launched 3/19/19",
      "Longitude": "-97.1466695",
      "Latitude": "31.549333"
    },
    {
      "id": 102,
      "Year": 2019,
      "CityType": "Pittsburgh - VM",
      "Icon": "#icon-1899-9C27B0",
      "Description": "Market #19 10/26/16<br>VM #16 Launched 3/21/19",
      "Longitude": "-79.9958864",
      "Latitude": "40.4406248"
    },
    {
      "id": 103,
      "Year": 2019,
      "CityType": "Erie - Virtual",
      "Icon": "#icon-1899-0288D1",
      "Description": "Market #106<br>Launched 3/21/19",
      "Longitude": "-80.085059",
      "Latitude": "42.1292241"
    },
    {
      "id": 104,
      "Year": 2019,
      "CityType": "Reading - Virtual",
      "Icon": "#icon-1899-0288D1",
      "Description": "Market #107<br>Launched 3/21/19",
      "Longitude": "-75.9268747",
      "Latitude": "40.3356483"
    },
    {
      "id": 105,
      "Year": 2019,
      "CityType": "South Bend - Virtual",
      "Icon": "#icon-1899-0288D1",
      "Description": "Market #108<br>Launched 3/26/19",
      "Longitude": "-86.2519898",
      "Latitude": "41.6763545"
    },
    {
      "id": 106,
      "Year": 2019,
      "CityType": "Elkhart - Virtual",
      "Icon": "#icon-1899-0288D1",
      "Description": "Market #109<br>Launched 3/26/19",
      "Longitude": "-85.9766671",
      "Latitude": "41.6819935"
    },
    {
      "id": 107,
      "Year": 2019,
      "CityType": "Modesto - Virtual",
      "Icon": "#icon-1899-0288D1",
      "Description": "Market #110<br>Launched 4/2/19",
      "Longitude": "-120.9968782",
      "Latitude": "37.6390972"
    },
    {
      "id": 108,
      "Year": 2019,
      "CityType": "Stockton - Virtual",
      "Icon": "#icon-1899-0288D1",
      "Description": "Market #111<br>Launched 4/2/19",
      "Longitude": "-121.2907796",
      "Latitude": "37.9577016"
    },
    {
      "id": 109,
      "Year": 2019,
      "CityType": "Vallejo - Virtual",
      "Icon": "#icon-1899-0288D1",
      "Description": "Market #112<br>Launched 4/2/19",
      "Longitude": "-122.2566367",
      "Latitude": "38.1040864"
    },
    {
      "id": 110,
      "Year": 2019,
      "CityType": "Salinas - Virtual",
      "Icon": "#icon-1899-0288D1",
      "Description": "Market #113<br>Launched 4/4/19",
      "Longitude": "-121.6555013",
      "Latitude": "36.6777372"
    },
    {
      "id": 111,
      "Year": 2019,
      "CityType": "Santa Cruz - Virtual",
      "Icon": "#icon-1899-0288D1",
      "Description": "Market #114<br>Launched 4/4/19",
      "Longitude": "-122.0307963",
      "Latitude": "36.9741171"
    },
    {
      "id": 112,
      "Year": 2019,
      "CityType": "Visalia - Virtual",
      "Icon": "#icon-1899-0288D1",
      "Description": "Market #115<br>Launched 4/4/19",
      "Longitude": "-119.2920585",
      "Latitude": "36.3302284"
    },
    {
      "id": 113,
      "Year": 2019,
      "CityType": "Chicago - VM",
      "Icon": "#icon-1899-9C27B0",
      "Description": "Market #25 - launched 5/10/17                                VM #17 - launched 4/10/19",
      "Longitude": "-87.6297982",
      "Latitude": "41.8781136"
    },
    {
      "id": 114,
      "Year": 2019,
      "CityType": "Rockford - Virtual",
      "Icon": "#icon-1899-0288D1",
      "Description": "Market # 116                                                                Launched - 4/10/19",
      "Longitude": "-89.0939952",
      "Latitude": "42.2711311"
    },
    {
      "id": 115,
      "Year": 2019,
      "CityType": "Ann Arbor - Virtual",
      "Icon": "#icon-1899-0288D1",
      "Description": "Market #117<br>Launched 4/10/19",
      "Longitude": "-83.7430378",
      "Latitude": "42.2808256"
    },
    {
      "id": 116,
      "Year": 2019,
      "CityType": "Kalamazoo - Virtual",
      "Icon": "#icon-1899-0288D1",
      "Description": "Market #118<br>Launched 4/10/19",
      "Longitude": "-85.5872286",
      "Latitude": "42.2917069"
    },
    {
      "id": 117,
      "Year": 2019,
      "CityType": "Boulder - Virtual",
      "Icon": "#icon-1899-0288D1",
      "Description": "Market #119<br>Launched 4/18/19",
      "Longitude": "-105.2705456",
      "Latitude": "40.0149856"
    },
    {
      "id": 118,
      "Year": 2019,
      "CityType": "Colorado Springs - Virtual",
      "Icon": "#icon-1899-0288D1",
      "Description": "Market #120<br>Launched 4/18/19",
      "Longitude": "-104.8213634",
      "Latitude": "38.8338816"
    },
    {
      "id": 119,
      "Year": 2019,
      "CityType": "Fort Collins - Virtual",
      "Icon": "#icon-1899-0288D1",
      "Description": "Market #121<br>Launched 4/18/19",
      "Longitude": "-105.084423",
      "Latitude": "40.5852602"
    },
    {
      "id": 120,
      "Year": 2019,
      "CityType": "Greeley - Virtual",
      "Icon": "#icon-1899-0288D1",
      "Description": "Market #122<br>Launched 4/18/19",
      "Longitude": "-104.7091322",
      "Latitude": "40.4233142"
    },
    {
      "id": 121,
      "Year": 2019,
      "CityType": "Appleton - Virtual",
      "Icon": "#icon-1899-0288D1",
      "Description": "Market #123<br>Launched 5/7/19",
      "Longitude": "-88.4153847",
      "Latitude": "44.2619309"
    },
    {
      "id": 122,
      "Year": 2019,
      "CityType": "Green Bay - Virtual",
      "Icon": "#icon-1899-0288D1",
      "Description": "Market #124<br>Launched 5/7/19",
      "Longitude": "-88.0132958",
      "Latitude": "44.5133188"
    },
    {
      "id": 123,
      "Year": 2019,
      "CityType": "Kansas City - VM",
      "Icon": "#icon-1899-9C27B0",
      "Description": "Market #45- launched 1/24/18<br>VM #18 - launched 5/9/19",
      "Longitude": "-94.5785667",
      "Latitude": "39.0997265"
    },
    {
      "id": 124,
      "Year": 2019,
      "CityType": "Topeka - Virtual",
      "Icon": "#icon-1899-0288D1",
      "Description": "Market #125<br>Launched 5/9/19",
      "Longitude": "-95.6751576",
      "Latitude": "39.0473451"
    },
    {
      "id": 125,
      "Year": 2019,
      "CityType": "Hagerstown - Virtual",
      "Icon": "#icon-1899-0288D1",
      "Description": "Market #126<br>Launched 5/15/19",
      "Longitude": "-77.7199932",
      "Latitude": "39.6417629"
    },
    {
      "id": 126,
      "Year": 2019,
      "CityType": "Salisbury - Virtual",
      "Icon": "#icon-1899-0288D1",
      "Description": "Market #127<br>Launched 5/15/19",
      "Longitude": "-75.5993692",
      "Latitude": "38.3606736"
    },
    {
      "id": 127,
      "Year": 2019,
      "CityType": "Charlottesville - Virtual",
      "Icon": "#icon-1899-0288D1",
      "Description": "Market #128<br>Launched 5/15/19",
      "Longitude": "-78.4766781",
      "Latitude": "38.0293059"
    },
    {
      "id": 128,
      "Year": 2019,
      "CityType": "Roanoke - Virtual",
      "Icon": "#icon-1899-0288D1",
      "Description": "Market #129<br>Launched 5/15/19",
      "Longitude": "-79.9414266",
      "Latitude": "37.2709704"
    },
    {
      "id": 129,
      "Year": 2019,
      "CityType": "Lakeland - Virtual",
      "Icon": "#icon-1899-0288D1",
      "Description": "Market #130<br>Launched 6/5/19",
      "Longitude": "-81.9498042",
      "Latitude": "28.0394654"
    },
    {
      "id": 130,
      "Year": 2019,
      "CityType": "North Port - Virtual",
      "Icon": "#icon-1899-0288D1",
      "Description": "Market #131<br>Launched 6/5/19",
      "Longitude": "-82.2359254",
      "Latitude": "27.044224"
    },
    {
      "id": 131,
      "Year": 2019,
      "CityType": "Spartanburg - Virtual",
      "Icon": "#icon-1899-0288D1",
      "Description": "Market #132<br>Launched 6/12/19",
      "Longitude": "-81.9320482",
      "Latitude": "34.9495672"
    },
    {
      "id": 132,
      "Year": 2019,
      "CityType": "Florence - Virtual",
      "Icon": "#icon-1899-0288D1",
      "Description": "Market #133<br>Launched 6/12/19",
      "Longitude": "-79.7625625",
      "Latitude": "34.1954331"
    },
    {
      "id": 133,
      "Year": 2019,
      "CityType": "Asheville - Virtual",
      "Icon": "#icon-1899-0288D1",
      "Description": "Market #134<br>Launched 6/19/19",
      "Longitude": "-82.5514869",
      "Latitude": "35.5950581"
    },
    {
      "id": 134,
      "Year": 2019,
      "CityType": "Fayetteville - Virtual",
      "Icon": "#icon-1899-0288D1",
      "Description": "Market #135<br>Launched 6/19/19",
      "Longitude": "-78.8783585",
      "Latitude": "35.0526641"
    },
    {
      "id": 135,
      "Year": 2019,
      "CityType": "Wilmington - Virtual",
      "Icon": "#icon-1899-0288D1",
      "Description": "Market #136<br>Launched 6/19/19",
      "Longitude": "-77.8868117",
      "Latitude": "34.2103894"
    },
    {
      "id": 136,
      "Year": 2019,
      "CityType": "Hickory - Virtual",
      "Icon": "#icon-1899-0288D1",
      "Description": "Market #137<br>Launched 6/19/19",
      "Longitude": "-81.3444573",
      "Latitude": "35.7344538"
    },
    {
      "id": 137,
      "Year": 2019,
      "CityType": "Greensboro - VM",
      "Icon": "#icon-1899-9C27B0",
      "Description": "Market #46 launched on 1/31/18                      VM#19 launched on 7/17/19",
      "Longitude": "-79.7919754",
      "Latitude": "36.0726354"
    },
    {
      "id": 138,
      "Year": 2019,
      "CityType": "Oxnard - Virtual Q3",
      "Icon": "#icon-1899-0288D1",
      "Description": "Market #138<br>Launched 8/13/19",
      "Longitude": "-119.1770516",
      "Latitude": "34.1975048"
    },
    {
      "id": 139,
      "Year": 2019,
      "CityType": "Los Angeles - Westminster VM Q3",
      "Icon": "#icon-1899-9C27B0",
      "Description": "Market #38 - launched 9/4/17                       VM#20 launched on 8/15/19",
      "Longitude": "-118.2436849",
      "Latitude": "34.0522342"
    },
    {
      "id": 140,
      "Year": 2019,
      "CityType": "Los Angeles - Ontario VM - Q3",
      "Icon": "#icon-1899-9C27B0",
      "Description": "VM#21 launched on 9/6/19",
      "Longitude": "-117.6508876",
      "Latitude": "34.0633443"
    },
    {
      "id": 141,
      "Year": 2019,
      "CityType": "Clarksville - Virtual Q3",
      "Icon": "#icon-1899-0288D1",
      "Description": "Market #139<br>Launched 9/10/19",
      "Longitude": "-87.3594528",
      "Latitude": "36.5297706"
    },
    {
      "id": 142,
      "Year": 2019,
      "CityType": "Johnson City - Virtual Q3",
      "Icon": "#icon-1899-0288D1",
      "Description": "Market #140<br>Launched 9/10/19",
      "Longitude": "-82.3534727",
      "Latitude": "36.3134397"
    },
    {
      "id": 143,
      "Year": 2019,
      "CityType": "Kingsport - Virtual Q3",
      "Icon": "#icon-1899-0288D1",
      "Description": "Market #141<br>Launched 9/10/19",
      "Longitude": "-82.5618186",
      "Latitude": "36.548434"
    },
    {
      "id": 144,
      "Year": 2019,
      "CityType": "Deltona - Virtual Q3",
      "Icon": "#icon-1899-0288D1",
      "Description": "Market #142<br>Launched 9/24/19",
      "Longitude": "-81.2636738",
      "Latitude": "28.9005446"
    },
    {
      "id": 145,
      "Year": 2019,
      "CityType": "Gainesville- Virtual Q3",
      "Icon": "#icon-1899-0288D1",
      "Description": "Market #143<br>Launched 9/24/19",
      "Longitude": "-82.3248262",
      "Latitude": "29.6516344"
    },
    {
      "id": 146,
      "Year": 2019,
      "CityType": "Ocala - Virtual Q3",
      "Icon": "#icon-1899-0288D1",
      "Description": "Market #144<br>Launched 9/24/19",
      "Longitude": "-82.1400923",
      "Latitude": "29.1871986"
    },
    {
      "id": 147,
      "Year": 2019,
      "CityType": "Palm Bay - Virtual Q3",
      "Icon": "#icon-1899-0288D1",
      "Description": "Market #145<br>Launched 9/24/19",
      "Longitude": "-80.5886646",
      "Latitude": "28.0344621"
    },
    {
      "id": 148,
      "Year": 2019,
      "CityType": "Port St. Lucie -  Virtual Q3",
      "Icon": "#icon-1899-0288D1",
      "Description": "Market #146<br>Launched 9/24/19",
      "Longitude": "-80.3582261",
      "Latitude": "27.2730492"
    },
    {
      "id": 149,
      "Year": 2019,
      "CityType": "Oklahoma City - VM - Q3",
      "Icon": "#icon-1899-9C27B0",
      "Description": "Market #30 - launched 6/21/17<br>VM #21 - launched 9/26/19",
      "Longitude": "-97.5164276",
      "Latitude": "35.4675602"
    },
    {
      "id": 150,
      "Year": 2019,
      "CityType": "Memphis - VM - Q4",
      "Icon": "#icon-1899-9C27B0",
      "Description": "Market #19 - launched 11/9/16                                 VM #23 - launched 11/13/2019",
      "Longitude": "-90.0489801",
      "Latitude": "35.1495343"
    },
    {
      "id": 151,
      "Year": 2019,
      "CityType": "Cleveland - IC",
      "Icon": "#icon-1899-FFD600",
      "Description": "IC #6",
      "Longitude": "-81.6943605",
      "Latitude": "41.49932"
    },
    {
      "id": 152,
      "Year": 2019,
      "CityType": "Sierra Vista - Virtual -Q1 2020",
      "Icon": "#icon-1899-0288D1",
      "Description": "Market #147<br>Launched 1/7/2020",
      "Longitude": "-110.2772856",
      "Latitude": "31.5455001"
    },
    {
      "id": 153,
      "Year": 2019,
      "CityType": "Santa Fe - Virtual - Q1 2020",
      "Icon": "#icon-1899-0288D1",
      "Description": "Market #148<br>Launched 1/9/2020",
      "Longitude": "-105.937799",
      "Latitude": "35.6869752"
    },
    {
      "id": 154,
      "Year": 2019,
      "CityType": "Minneapolis - Hub- Q1 2020",
      "Icon": "#icon-1899-0288D1",
      "Description": "Market #149<br>Launched 1/15/2020",
      "Longitude": "-93.2650108",
      "Latitude": "44.977753"
    },
    {
      "id": 155,
      "Year": 2019,
      "CityType": "St. Cloud - Virtual Q1 2020",
      "Icon": "#icon-1899-0288D1",
      "Description": "Market #150<br>Launched 1/21/2020",
      "Longitude": "-94.1632404",
      "Latitude": "45.5579451"
    },
    {
      "id": 156,
      "Year": 2019,
      "CityType": "Rochester - Virtual Q1 2020",
      "Icon": "#icon-1899-0288D1",
      "Description": "Market #151<br>Launched 1/22/2020",
      "Longitude": "-92.4801989",
      "Latitude": "44.0121221"
    },
    {
      "id": 157,
      "Year": 2019,
      "CityType": "Mankato-Virtual Q1 2020",
      "Icon": "#icon-1899-0288D1",
      "Description": "Market #152<br>Launched 1/23/2020",
      "Longitude": "-93.9993996",
      "Latitude": "44.1635775"
    },
    {
      "id": 158,
      "Year": 2019,
      "CityType": "Nashville - IC",
      "Icon": "#icon-1899-FFD600",
      "Description": "IC #7",
      "Longitude": "-86.7102129",
      "Latitude": "36.2335401"
    },
    {
      "id": 159,
      "Year": 2019,
      "CityType": "Eau Claire - Virtual  Q1 2020",
      "Icon": "#icon-1899-0288D1",
      "Description": "Market #153<br>Launched 1/24/2020",
      "Longitude": "-91.4984941",
      "Latitude": "44.811349"
    },
    {
      "id": 160,
      "Year": 2019,
      "CityType": "Madera-Virtual Q1 2020",
      "Icon": "#icon-1899-0288D1",
      "Description": "Market #154<br>Launched 1/27/2020",
      "Longitude": "-120.0607176",
      "Latitude": "36.9613356"
    },
    {
      "id": 161,
      "Year": 2019,
      "CityType": "Napa - Virtual Q1 2020",
      "Icon": "#icon-1899-0288D1",
      "Description": "Market #155<br>Launched 1/28/2020",
      "Longitude": "-122.286865",
      "Latitude": "38.2975381"
    },
    {
      "id": 162,
      "Year": 2019,
      "CityType": "Miami - VM - Q1 2020",
      "Icon": "#icon-1899-9C27B0",
      "Description": "VM #24 - launched 1/29/20<br>Market #13 - launched 4/11/16",
      "Longitude": "-80.1917902",
      "Latitude": "25.7616798"
    },
    {
      "id": 163,
      "Year": 2019,
      "CityType": "Hanford - Virtual Q1 2020",
      "Icon": "#icon-1899-0288D1",
      "Description": "Market #156<br>Launched 1/30/2020",
      "Longitude": "-119.6456844",
      "Latitude": "36.3274502"
    },
    {
      "id": 164,
      "Year": 2019,
      "CityType": "Chico - Virtual - Q1 2020",
      "Icon": "#icon-1899-0288D1",
      "Description": "Market #157<br>Launched 1/31/2020",
      "Longitude": "-121.8374777",
      "Latitude": "39.7284944"
    },
    {
      "id": 165,
      "Year": 2019,
      "CityType": "Yuba City - Virtual - Q1 2020",
      "Icon": "#icon-1899-0288D1",
      "Description": "Market #158<br>Launched 1/31/2020",
      "Longitude": "-121.6169108",
      "Latitude": "39.1404477"
    },
    {
      "id": 166,
      "Year": 2019,
      "CityType": "Cheyenne-Virtual-Q1 2020",
      "Icon": "#icon-1899-0288D1",
      "Description": "Market #159<br>Launched 2/3/2020",
      "Longitude": "-104.8202462",
      "Latitude": "41.1399814"
    },
    {
      "id": 167,
      "Year": 2019,
      "CityType": "Pueblo - Virtual - Q1 2020",
      "Icon": "#icon-1899-0288D1",
      "Description": "Market #160<br>Launched 2/5/2020",
      "Longitude": "-104.6091409",
      "Latitude": "38.2544472"
    },
    {
      "id": 168,
      "Year": 2019,
      "CityType": "St. George - Virtual - Q1 2020",
      "Icon": "#icon-1899-0288D1",
      "Description": "Market #161<br>Launched 2/7/2020",
      "Longitude": "-113.5684164",
      "Latitude": "37.0965278"
    },
    {
      "id": 169,
      "Year": 2019,
      "CityType": "Concord - IC",
      "Icon": "#icon-1899-FFD600",
      "Description": "IC #8 2-27-2020",
      "Longitude": "-80.579511",
      "Latitude": "35.4087517"
    },
    {
      "id": 170,
      "Year": 2020,
      "CityType": "California-Lexington Park - Virtual",
      "Icon": "#icon-1899-0288D1",
      "Description": "Market #162<br>Launched 5/6/2020",
      "Longitude": "-76.5074542",
      "Latitude": "38.3004029"
    },
    {
      "id": 171,
      "Year": 2020,
      "CityType": "Dover - Virtual",
      "Icon": "#icon-1899-0288D1",
      "Description": "Market #163<br>Launched 5/6/2020",
      "Longitude": "-75.5243682",
      "Latitude": "39.158168"
    },
    {
      "id": 172,
      "Year": 2020,
      "CityType": "Gadsden - Virtual - Q2 2020",
      "Icon": "#icon-1899-0288D1",
      "Description": "Market #164<br>Launched 5/6/2020",
      "Longitude": "-86.0066386",
      "Latitude": "34.014264"
    },
    {
      "id": 173,
      "Year": 2020,
      "CityType": "Anniston - Oxford - Virtual",
      "Icon": "#icon-1899-0288D1",
      "Description": "Market #165<br>Launched 5/6/2020",
      "Longitude": "-85.8316318",
      "Latitude": "33.6598257"
    },
    {
      "id": 174,
      "Year": 2020,
      "CityType": "Decatur - Virtual",
      "Icon": "#icon-1899-0288D1",
      "Description": "Market #166<br>Launched 5/6/2020",
      "Longitude": "-86.9833417",
      "Latitude": "34.6059253"
    },
    {
      "id": 175,
      "Year": 2020,
      "CityType": "Florence - Muscle Shoals - Virtual",
      "Icon": "#icon-1899-0288D1",
      "Description": "Market #167<br>Launched 5/6/2020",
      "Longitude": "-87.677251",
      "Latitude": "34.79981"
    },
    {
      "id": 176,
      "Year": 2020,
      "CityType": "Wichita Falls - Virtual",
      "Icon": "#icon-1899-0288D1",
      "Description": "Market #168<br>Launched 5/6/2020",
      "Longitude": "-98.4933873",
      "Latitude": "33.9137085"
    },
    {
      "id": 177,
      "Year": 2020,
      "CityType": "Gainesville - Virtual",
      "Icon": "#icon-1899-0288D1",
      "Description": "Market #169<br>Launched 5/6/2020",
      "Longitude": "-83.8240663",
      "Latitude": "34.2978794"
    },
    {
      "id": 178,
      "Year": 2020,
      "CityType": "Cleveland - Virtual",
      "Icon": "#icon-1899-0288D1",
      "Description": "Market #170<br>Launched 5/6/2020",
      "Longitude": "-84.8766115",
      "Latitude": "35.1595182"
    },
    {
      "id": 179,
      "Year": 2020,
      "CityType": "Rome - Virtual",
      "Icon": "#icon-1899-0288D1",
      "Description": "Market #171<br>Launched 5/6/2020",
      "Longitude": "-85.1646726",
      "Latitude": "34.257038"
    },
    {
      "id": 180,
      "Year": 2020,
      "CityType": "Dalton - Virtual",
      "Icon": "#icon-1899-0288D1",
      "Description": "Market #172<br>Launched 5/6/2020",
      "Longitude": "-84.9702228",
      "Latitude": "34.7698021"
    },
    {
      "id": 181,
      "Year": 2020,
      "CityType": "Michigan City-Virtual",
      "Icon": "#icon-1899-0288D1",
      "Description": "Market #173<br>Launched 5/6/2020",
      "Longitude": "-86.8950297",
      "Latitude": "41.7075394"
    },
    {
      "id": 182,
      "Year": 2020,
      "CityType": "Kankakee- Virtual",
      "Icon": "#icon-1899-0288D1",
      "Description": "Market #174<br>Launched 5/6/2020",
      "Longitude": "-87.8611531",
      "Latitude": "41.1200325"
    },
    {
      "id": 183,
      "Year": 2020,
      "CityType": "Bloomington - Virtual",
      "Icon": "#icon-1899-0288D1",
      "Description": "Market #175<br>Launched 5/6/2020",
      "Longitude": "-88.9936873",
      "Latitude": "40.4842027"
    },
    {
      "id": 184,
      "Year": 2020,
      "CityType": "Peoria - Virtual",
      "Icon": "#icon-1899-0288D1",
      "Description": "Market #176<br>Launched 5/6/2020",
      "Longitude": "-89.5889864",
      "Latitude": "40.6936488"
    },
    {
      "id": 185,
      "Year": 2020,
      "CityType": "Champaign-Urbana - Virtual",
      "Icon": "#icon-1899-0288D1",
      "Description": "Market #177<br>Launched 5/6/2020",
      "Longitude": "-88.2461183",
      "Latitude": "40.2138865"
    },
    {
      "id": 186,
      "Year": 2020,
      "CityType": "Mansfield - Virtual",
      "Icon": "#icon-1899-0288D1",
      "Description": "Market #178<br>Launched 5/6/2020",
      "Longitude": "-82.5154471",
      "Latitude": "40.75839"
    },
    {
      "id": 187,
      "Year": 2020,
      "CityType": "Weirton-Steubenville, WV-OH",
      "Icon": "#icon-1899-0288D1",
      "Description": "Market #179<br>Launched 5/6/2020",
      "Longitude": "-80.7214417",
      "Latitude": "40.3431452"
    },
    {
      "id": 188,
      "Year": 2020,
      "CityType": "Sumter - Virtual",
      "Icon": "#icon-1899-0288D1",
      "Description": "Market #180<br>Launched 5/6/2020",
      "Longitude": "-80.3414693",
      "Latitude": "33.9204354"
    },
    {
      "id": 189,
      "Year": 2020,
      "CityType": "Lima - Virtual",
      "Icon": "#icon-1899-0288D1",
      "Description": "Market #181<br>Launched 5/6/2020",
      "Longitude": "-84.1052256",
      "Latitude": "40.742551"
    },
    {
      "id": 190,
      "Year": 2020,
      "CityType": "Springfield - Virtual",
      "Icon": "#icon-1899-0288D1",
      "Description": "Market #182<br>Launched 5/6/2020",
      "Longitude": "-83.8088171",
      "Latitude": "39.9242266"
    },
    {
      "id": 191,
      "Year": 2020,
      "CityType": "Parkersburg - Vienna - Virtual",
      "Icon": "#icon-1899-0288D1",
      "Description": "Market #183<br>Launched 5/6/2020",
      "Longitude": "-81.5377013",
      "Latitude": "39.282148"
    },
    {
      "id": 192,
      "Year": 2020,
      "CityType": "Wheeling - Virtual",
      "Icon": "#icon-1899-0288D1",
      "Description": "Market #184<br>Launched 5/6/2020",
      "Longitude": "-80.7209149",
      "Latitude": "40.0639616"
    },
    {
      "id": 193,
      "Year": 2020,
      "CityType": "Auburn - Opelika - Virtual",
      "Icon": "#icon-1899-0288D1",
      "Description": "Market #185<br>Launched 5/6/2020",
      "Longitude": "-85.4807825",
      "Latitude": "32.6098566"
    },
    {
      "id": 194,
      "Year": 2020,
      "CityType": "Dothan - Virtual",
      "Icon": "#icon-1899-0288D1",
      "Description": "Market #186<br>Launched 5/6/2020",
      "Longitude": "-85.3904888",
      "Latitude": "31.2232313"
    },
    {
      "id": 195,
      "Year": 2020,
      "CityType": "Albany - Virtual",
      "Icon": "#icon-1899-0288D1",
      "Description": "Market #187<br>Launched 5/6/2020",
      "Longitude": "-84.155741",
      "Latitude": "31.5785074"
    },
    {
      "id": 196,
      "Year": 2020,
      "CityType": "Longview - Virtual",
      "Icon": "#icon-1899-0288D1",
      "Description": "Market #188<br>Launched 5/6/2020",
      "Longitude": "-94.7404891",
      "Latitude": "32.5007037"
    },
    {
      "id": 197,
      "Year": 2020,
      "CityType": "Sherman-Denison-Virtual",
      "Icon": "#icon-1899-0288D1",
      "Description": "Market #189<br>Launched 5/6/2020",
      "Longitude": "-96.6088805",
      "Latitude": "33.6356618"
    },
    {
      "id": 198,
      "Year": 2020,
      "CityType": "Tyler - Virtual",
      "Icon": "#icon-1899-0288D1",
      "Description": "Market #190<br>Launched 5/6/2020",
      "Longitude": "-95.3010624",
      "Latitude": "32.3512601"
    },
    {
      "id": 199,
      "Year": 2020,
      "CityType": "Jackson - Virtual",
      "Icon": "#icon-1899-0288D1",
      "Description": "Market #191<br>Launched 5/6/2020",
      "Longitude": "-84.4013462",
      "Latitude": "42.245869"
    },
    {
      "id": 200,
      "Year": 2020,
      "CityType": "Monroe - Virtual",
      "Icon": "#icon-1899-0288D1",
      "Description": "Market #192<br>Launched 5/6/2020",
      "Longitude": "-83.3977101",
      "Latitude": "41.9164343"
    },
    {
      "id": 201,
      "Year": 2020,
      "CityType": "Bay City - Virtual",
      "Icon": "#icon-1899-0288D1",
      "Description": "Market #193<br>Launched 5/6/2020",
      "Longitude": "-83.8888647",
      "Latitude": "43.5944677"
    },
    {
      "id": 202,
      "Year": 2020,
      "CityType": "Saginaw - Virtual",
      "Icon": "#icon-1899-0288D1",
      "Description": "Market #194<br>Launched 5/6/2020",
      "Longitude": "-83.9508068",
      "Latitude": "43.4194699"
    },
    {
      "id": 203,
      "Year": 2020,
      "CityType": "Niles-Benton Harbor - Virtual",
      "Icon": "#icon-1899-0288D1",
      "Description": "Market #195<br>Launched 5/6/2020",
      "Longitude": "-86.2541768",
      "Latitude": "41.8297694"
    },
    {
      "id": 204,
      "Year": 2020,
      "CityType": "Battle Creek - Virtual",
      "Icon": "#icon-1899-0288D1",
      "Description": "Market #196<br>Launched 5/6/2020",
      "Longitude": "-85.1797142",
      "Latitude": "42.3211522"
    },
    {
      "id": 205,
      "Year": 2020,
      "CityType": "Muskegon - Virtual",
      "Icon": "#icon-1899-0288D1",
      "Description": "Market #197<br>Launched 5/6/2020",
      "Longitude": "-86.2483921",
      "Latitude": "43.2341813"
    },
    {
      "id": 206,
      "Year": 2020,
      "CityType": "Midland - Virtual",
      "Icon": "#icon-1899-0288D1",
      "Description": "Market #198<br>Launched 5/6/2020",
      "Longitude": "-84.2472116",
      "Latitude": "43.6155825"
    },
    {
      "id": 207,
      "Year": 2020,
      "CityType": "Blacksburg-Christiansburg-Radford - Virtual",
      "Icon": "#icon-1899-0288D1",
      "Description": "Market #199<br>Launched 5/6/2020",
      "Longitude": "-80.4139393",
      "Latitude": "37.2295733"
    },
    {
      "id": 208,
      "Year": 2020,
      "CityType": "Gettysburg - Virtual",
      "Icon": "#icon-1899-0288D1",
      "Description": "Market #200<br>Launched 5/6/2020",
      "Longitude": "-77.2310955",
      "Latitude": "39.8309293"
    },
    {
      "id": 209,
      "Year": 2020,
      "CityType": "Chambersburg-Waynesboro - Virtual",
      "Icon": "#icon-1899-0288D1",
      "Description": "Market #201<br>Launched 5/6/2020",
      "Longitude": "-77.6611022",
      "Latitude": "39.9375911"
    },
    {
      "id": 210,
      "Year": 2020,
      "CityType": "Lebanon - Virtual",
      "Icon": "#icon-1899-0288D1",
      "Description": "Market #202<br>Launched 5/6/2020",
      "Longitude": "-76.4113497",
      "Latitude": "40.3409251"
    },
    {
      "id": 211,
      "Year": 2020,
      "CityType": "State College - Virtual",
      "Icon": "#icon-1899-0288D1",
      "Description": "Market #203<br>Launched 5/6/2020",
      "Longitude": "-77.8600012",
      "Latitude": "40.7933949"
    },
    {
      "id": 212,
      "Year": 2020,
      "CityType": "Pittsfield - Virtual",
      "Icon": "#icon-1899-0288D1",
      "Description": "Market #204<br>Launched 5/6/2020",
      "Longitude": "-73.2453824",
      "Latitude": "42.4500845"
    },
    {
      "id": 213,
      "Year": 2020,
      "CityType": "Victoria - Virtual",
      "Icon": "#icon-1899-0288D1",
      "Description": "Market #205<br>Launched 5/6/2020",
      "Longitude": "-97.0035982",
      "Latitude": "28.8052674"
    },
    {
      "id": 214,
      "Year": 2020,
      "CityType": "Lafayette - Virtual",
      "Icon": "#icon-1899-0288D1",
      "Description": "Market #206<br>Launched 5/6/2020",
      "Longitude": "-86.8752869",
      "Latitude": "40.4167022"
    },
    {
      "id": 215,
      "Year": 2020,
      "CityType": "Kokomo - Virtual",
      "Icon": "#icon-1899-0288D1",
      "Description": "Market #207<br>Launched 5/6/2020",
      "Longitude": "-86.1336033",
      "Latitude": "40.486427"
    },
    {
      "id": 216,
      "Year": 2020,
      "CityType": "Muncie - Virtual",
      "Icon": "#icon-1899-0288D1",
      "Description": "Market #208<br>Launched 5/6/2020",
      "Longitude": "-85.3863599",
      "Latitude": "40.1933767"
    },
    {
      "id": 217,
      "Year": 2020,
      "CityType": "Bloomington - Ind - Virtual",
      "Icon": "#icon-1899-0288D1",
      "Description": "Market #209<br>Launched 5/6/2020",
      "Longitude": "-86.5263857",
      "Latitude": "39.165325"
    },
    {
      "id": 218,
      "Year": 2020,
      "CityType": "Columbus - Ind - Virtual",
      "Icon": "#icon-1899-0288D1",
      "Description": "Market #210<br>Launched 5/6/2020",
      "Longitude": "-85.9213796",
      "Latitude": "39.2014404"
    },
    {
      "id": 219,
      "Year": 2020,
      "CityType": "Terre Haute - Virtual",
      "Icon": "#icon-1899-0288D1",
      "Description": "Market #211<br>Launched 5/6/2020",
      "Longitude": "-87.4139092",
      "Latitude": "39.4667034"
    },
    {
      "id": 220,
      "Year": 2020,
      "CityType": "Danville - Virtual",
      "Icon": "#icon-1899-0288D1",
      "Description": "Market #212<br>Launched 5/6/2020",
      "Longitude": "-87.6300207",
      "Latitude": "40.124481"
    },
    {
      "id": 221,
      "Year": 2020,
      "CityType": "Valdosta - Virtual",
      "Icon": "#icon-1899-0288D1",
      "Description": "Market #213<br>Launched 5/6/2020",
      "Longitude": "-83.2784851",
      "Latitude": "30.8327022"
    },
    {
      "id": 222,
      "Year": 2020,
      "CityType": "Manhattan - Virtual",
      "Icon": "#icon-1899-0288D1",
      "Description": "Market #214<br>Launched 5/6/2020",
      "Longitude": "-96.5716694",
      "Latitude": "39.1836082"
    },
    {
      "id": 223,
      "Year": 2020,
      "CityType": "Lawrence - Virtual",
      "Icon": "#icon-1899-0288D1",
      "Description": "Market #215<br>Launched 5/6/2020",
      "Longitude": "-95.2352501",
      "Latitude": "38.9716689"
    },
    {
      "id": 224,
      "Year": 2020,
      "CityType": "Saint Joseph - Virtual",
      "Icon": "#icon-1899-0288D1",
      "Description": "Market #216<br>Launched 5/6/2020",
      "Longitude": "-94.846681",
      "Latitude": "39.7674578"
    },
    {
      "id": 225,
      "Year": 2020,
      "CityType": "Morristown - Virtual",
      "Icon": "#icon-1899-0288D1",
      "Description": "Market #217<br>Launched 5/6/2020",
      "Longitude": "-83.2948922",
      "Latitude": "36.2139814"
    },
    {
      "id": 226,
      "Year": 2020,
      "CityType": "Evansville - Virtual",
      "Icon": "#icon-1899-0288D1",
      "Description": "Market #218<br>Launched 5/6/2020",
      "Longitude": "-87.5710898",
      "Latitude": "37.9715592"
    },
    {
      "id": 227,
      "Year": 2020,
      "CityType": "Elizabethtown-Fort Knox - Virtual",
      "Icon": "#icon-1899-0288D1",
      "Description": "Market #219<br>Launched 5/6/2020",
      "Longitude": "-85.8649408",
      "Latitude": "37.7030646"
    },
    {
      "id": 228,
      "Year": 2020,
      "CityType": "Owensboro - Virtual",
      "Icon": "#icon-1899-0288D1",
      "Description": "Market #220<br>Launched 5/6/2020",
      "Longitude": "-87.1111676",
      "Latitude": "37.7719074"
    },
    {
      "id": 229,
      "Year": 2020,
      "CityType": "Warner Robins - Virtual",
      "Icon": "#icon-1899-0288D1",
      "Description": "Market #221<br>Launched 5/6/2020",
      "Longitude": "-83.624201",
      "Latitude": "32.6130007"
    },
    {
      "id": 230,
      "Year": 2020,
      "CityType": "Jackson - Virtual",
      "Icon": "#icon-1899-0288D1",
      "Description": "Market #222<br>Launched 5/6/2020",
      "Longitude": "-88.8139469",
      "Latitude": "35.6145169"
    },
    {
      "id": 231,
      "Year": 2020,
      "CityType": "Fond du Lac - Virtual",
      "Icon": "#icon-1899-0288D1",
      "Description": "Market #223<br>Launched 5/6/2020",
      "Longitude": "-88.4470508",
      "Latitude": "43.7730448"
    },
    {
      "id": 232,
      "Year": 2020,
      "CityType": "Sheboygan - Virtual",
      "Icon": "#icon-1899-0288D1",
      "Description": "Market #224<br>Launched 5/6/2020",
      "Longitude": "-87.71453",
      "Latitude": "43.7508284"
    },
    {
      "id": 233,
      "Year": 2020,
      "CityType": "Oshkosh-Neenah - Virtual",
      "Icon": "#icon-1899-0288D1",
      "Description": "Market #225<br>Launched 5/6/2020",
      "Longitude": "-88.7108964",
      "Latitude": "44.0126679"
    },
    {
      "id": 234,
      "Year": 2020,
      "CityType": "Racine - Virtual",
      "Icon": "#icon-1899-0288D1",
      "Description": "Market #226<br>Launched 5/6/2020",
      "Longitude": "-87.7828523",
      "Latitude": "42.7261309"
    },
    {
      "id": 235,
      "Year": 2020,
      "CityType": "Janesville-Beloit - Virtual",
      "Icon": "#icon-1899-0288D1",
      "Description": "Market #227<br>Launched 5/6/2020",
      "Longitude": "-89.0187222",
      "Latitude": "42.6827885"
    },
    {
      "id": 236,
      "Year": 2020,
      "CityType": "Bowling Green - Virtual",
      "Icon": "#icon-1899-0288D1",
      "Description": "Market #228<br>Launched 5/6/2020",
      "Longitude": "-86.4808043",
      "Latitude": "36.9685219"
    },
    {
      "id": 237,
      "Year": 2020,
      "CityType": "Enid - Virtual",
      "Icon": "#icon-1899-0288D1",
      "Description": "Market #229<br>Launched 5/6/2020",
      "Longitude": "-97.8783911",
      "Latitude": "36.3955891"
    },
    {
      "id": 238,
      "Year": 2020,
      "CityType": "Lawton - Virtual",
      "Icon": "#icon-1899-0288D1",
      "Description": "Market #230<br>Launched 5/6/2020",
      "Longitude": "-98.3959291",
      "Latitude": "34.6035669"
    },
    {
      "id": 239,
      "Year": 2020,
      "CityType": "The Villages - Virtual",
      "Icon": "#icon-1899-0288D1",
      "Description": "Market #231<br>Launched 5/6/2020",
      "Longitude": "-82.0037608",
      "Latitude": "28.927019"
    },
    {
      "id": 240,
      "Year": 2020,
      "CityType": "Sebring- Virtual",
      "Icon": "#icon-1899-0288D1",
      "Description": "Market #232<br>Launched 5/6/2020",
      "Longitude": "-81.440907",
      "Latitude": "27.495592"
    },
    {
      "id": 241,
      "Year": 2020,
      "CityType": "Sebastian-Vero Beach-Virtual",
      "Icon": "#icon-1899-0288D1",
      "Description": "Market #233<br>Launched 5/6/2020",
      "Longitude": "-80.4706078",
      "Latitude": "27.816415"
    },
    {
      "id": 242,
      "Year": 2020,
      "CityType": "Vineland-Bridgeton - Virtual",
      "Icon": "#icon-1899-0288D1",
      "Description": "Market #234<br>Launched 5/6/2020",
      "Longitude": "-75.0259637",
      "Latitude": "39.4863773"
    },
    {
      "id": 243,
      "Year": 2020,
      "CityType": "Ocean City - Virtual",
      "Icon": "#icon-1899-0288D1",
      "Description": "Market #235<br>Launched 5/6/2020",
      "Longitude": "-74.5746001",
      "Latitude": "39.2776156"
    },
    {
      "id": 244,
      "Year": 2020,
      "CityType": "Johnstown - Virtual",
      "Icon": "#icon-1899-0288D1",
      "Description": "Market #236<br>Launched 5/6/2020",
      "Longitude": "-78.9219698",
      "Latitude": "40.3267407"
    },
    {
      "id": 245,
      "Year": 2020,
      "CityType": "Morgantown - Virtual",
      "Icon": "#icon-1899-0288D1",
      "Description": "Market #237<br>Launched 5/6/2020",
      "Longitude": "-79.9558968",
      "Latitude": "39.629526"
    },
    {
      "id": 246,
      "Year": 2020,
      "CityType": "Burlington - Virtual",
      "Icon": "#icon-1899-0288D1",
      "Description": "Market #238<br>Launched 5/6/2020",
      "Longitude": "-79.4377991",
      "Latitude": "36.0956918"
    },
    {
      "id": 247,
      "Year": 2020,
      "CityType": "Rocky Mount - Virtual",
      "Icon": "#icon-1899-0288D1",
      "Description": "Market #239<br>Launched 5/6/2020",
      "Longitude": "-77.7905339",
      "Latitude": "35.9382103"
    },
    {
      "id": 248,
      "Year": 2020,
      "CityType": "Goldsboro - Virtual",
      "Icon": "#icon-1899-0288D1",
      "Description": "Market #240<br>Launched 5/6/2020",
      "Longitude": "-77.9927651",
      "Latitude": "35.3848841"
    },
    {
      "id": 249,
      "Year": 2020,
      "CityType": "Greenville - Virtual",
      "Icon": "#icon-1899-0288D1",
      "Description": "Market #241<br>Launched 5/6/2020",
      "Longitude": "-77.3663538",
      "Latitude": "35.612661"
    },
    {
      "id": 250,
      "Year": 2020,
      "CityType": "New Bern - Virtual",
      "Icon": "#icon-1899-0288D1",
      "Description": "Market #242<br>Launched 5/6/2020",
      "Longitude": "-77.0441143",
      "Latitude": "35.108493"
    },
    {
      "id": 251,
      "Year": 2020,
      "CityType": "Jacksonville - Virtual",
      "Icon": "#icon-1899-0288D1",
      "Description": "Market #243<br>Launched 5/6/2020",
      "Longitude": "-77.4302414",
      "Latitude": "34.7540524"
    },
    {
      "id": 252,
      "Year": 2020,
      "CityType": "Staunton-Waynesboro - Virtual",
      "Icon": "#icon-1899-0288D1",
      "Description": "Market #244<br>Launched 5/6/2020",
      "Longitude": "-79.0716958",
      "Latitude": "38.149576"
    },
    {
      "id": 253,
      "Year": 2020,
      "CityType": "Lynchburg - Virtual",
      "Icon": "#icon-1899-0288D1",
      "Description": "Market #245<br>Launched 5/6/2020",
      "Longitude": "-79.1422464",
      "Latitude": "37.4137536"
    },
    {
      "id": 254,
      "Year": 2020,
      "CityType": "Ithaca - Virtual",
      "Icon": "#icon-1899-0288D1",
      "Description": "Market #246<br>Launched 5/6/2020",
      "Longitude": "-76.5018807",
      "Latitude": "42.4439614"
    },
    {
      "id": 255,
      "Year": 2020,
      "CityType": "Elmira - Virtual",
      "Icon": "#icon-1899-0288D1",
      "Description": "Market #247<br>Launched 5/6/2020",
      "Longitude": "-76.8077338",
      "Latitude": "42.0897965"
    },
    {
      "id": 256,
      "Year": 2020,
      "CityType": "Glens Falls - Virtual",
      "Icon": "#icon-1899-0288D1",
      "Description": "Market #248<br>Launched 5/6/2020",
      "Longitude": "-73.6440058",
      "Latitude": "43.3095164"
    },
    {
      "id": 257,
      "Year": 2020,
      "CityType": "Utica-Rome - Virtual",
      "Icon": "#icon-1899-0288D1",
      "Description": "Market #249<br>Launched 5/6/2020",
      "Longitude": "-75.232664",
      "Latitude": "43.100903"
    },
    {
      "id": 258,
      "Year": 2020,
      "CityType": "Brunswick - Virtual",
      "Icon": "#icon-1899-0288D1",
      "Description": "Market #250<br>Launched 5/6/2020",
      "Longitude": "-81.4914894",
      "Latitude": "31.1499528"
    },
    {
      "id": 259,
      "Year": 2020,
      "CityType": "Hinesville - Virtual",
      "Icon": "#icon-1899-0288D1",
      "Description": "Market #251<br>Launched 5/6/2020",
      "Longitude": "-81.6141099",
      "Latitude": "31.8315028"
    },
    {
      "id": 260,
      "Year": 2020,
      "CityType": "Bloomsburg-Berwick - Virtual",
      "Icon": "#icon-1899-0288D1",
      "Description": "Market #252<br>Launched 5/6/2020",
      "Longitude": "-76.4549457",
      "Latitude": "41.003698"
    },
    {
      "id": 261,
      "Year": 2020,
      "CityType": "Williamsport - Virtual",
      "Icon": "#icon-1899-0288D1",
      "Description": "Market #253<br>Launched 5/6/2020",
      "Longitude": "-77.0010786",
      "Latitude": "41.2411897"
    },
    {
      "id": 262,
      "Year": 2020,
      "CityType": "East Stroudsburg - Virtual",
      "Icon": "#icon-1899-0288D1",
      "Description": "Market #254<br>Launched 5/6/2020",
      "Longitude": "-75.1817547",
      "Latitude": "41.0030522"
    },
    {
      "id": 263,
      "Year": 2020,
      "CityType": "Springfield - Virtual",
      "Icon": "#icon-1899-0288D1",
      "Description": "Market #255<br>Launched 5/6/2020",
      "Longitude": "-89.6501481",
      "Latitude": "39.7817213"
    },
    {
      "id": 264,
      "Year": 2020,
      "CityType": "Columbia - Virtual",
      "Icon": "#icon-1899-0288D1",
      "Description": "Market #256<br>Launched 5/6/2020",
      "Longitude": "-92.3340724",
      "Latitude": "38.9517053"
    },
    {
      "id": 265,
      "Year": 2020,
      "CityType": "Jefferson City - Virtual",
      "Icon": "#icon-1899-0288D1",
      "Description": "Market #257<br>Launched 5/6/2020",
      "Longitude": "-92.1735164",
      "Latitude": "38.5767017"
    },
    {
      "id": 266,
      "Year": 2020,
      "CityType": "Homosassa Springs - Virtual",
      "Icon": "#icon-1899-0288D1",
      "Description": "Market #258<br>Launched 5/6/2020",
      "Longitude": "-82.5761369",
      "Latitude": "28.8037059"
    },
    {
      "id": 267,
      "Year": 2020,
      "CityType": "Punta Gorda - Virtual",
      "Icon": "#icon-1899-0288D1",
      "Description": "Market #259<br>Launched 5/6/2020",
      "Longitude": "-82.0453664",
      "Latitude": "26.9297836"
    },
    {
      "id": 268,
      "Year": 2020,
      "CityType": "Winchester - Virtual",
      "Icon": "#icon-1899-0288D1",
      "Description": "Market #260<br>Launched 5/6/2020",
      "Longitude": "-78.1633341",
      "Latitude": "39.1856597"
    },
    {
      "id": 269,
      "Year": 2020,
      "CityType": "Kingston - Virtual",
      "Icon": "#icon-1899-0288D1",
      "Description": "Market #261<br>Launched 5/6/2020",
      "Longitude": "-73.9973608",
      "Latitude": "41.9270367"
    },
    {
      "id": 270,
      "Year": 2020,
      "CityType": "Louisville - VM",
      "Icon": "#icon-1899-9C27B0",
      "Description": "Market #31 - launched 7/5/17<br>VM #25 - launched 8/12/20",
      "Longitude": "-85.7584557",
      "Latitude": "38.2526647"
    },
    {
      "id": 271,
      "Year": 2020,
      "CityType": "Detroit - VM",
      "Icon": "#icon-1899-9C27B0",
      "Description": "Market #32 - launched 7/19/17<br>VM #26 - launched 10/1/20",
      "Longitude": "-83.0457538",
      "Latitude": "42.331427"
    }
  ]
}
